[
  {
    "state": "Andaman and Nicobar Islands",
    "cities": [
      {
        "name": "Bamboo Flat",
        "id": 57837,
        "latitude": "11.70000000",
        "longitude": "92.71667000"
      },
      {
        "name": "Nicobar",
        "id": 133213,
        "latitude": "7.03002000",
        "longitude": "93.79028000"
      },
      {
        "name": "Port Blair",
        "id": 133482,
        "latitude": "11.66613000",
        "longitude": "92.74635000"
      },
      {
        "name": "South Andaman",
        "id": 134006,
        "latitude": "10.75776000",
        "longitude": "92.52136000"
      }
    ]
  },
  {
    "state": "Andhra Pradesh",
    "cities": [
      {
        "name": "Addanki",
        "id": 57593,
        "latitude": "15.81061000",
        "longitude": "79.97338000"
      },
      {
        "name": "Adoni",
        "id": 134452,
        "latitude": "15.62788000",
        "longitude": "77.27495000"
      },
      {
        "name": "Akasahebpet",
        "id": 57620,
        "latitude": "17.50455000",
        "longitude": "82.56597000"
      },
      {
        "name": "Akividu",
        "id": 57623,
        "latitude": "16.58225000",
        "longitude": "81.38112000"
      },
      {
        "name": "Akkarampalle",
        "id": 57624,
        "latitude": "13.65000000",
        "longitude": "79.42000000"
      },
      {
        "name": "Amalapuram",
        "id": 57658,
        "latitude": "16.57868000",
        "longitude": "82.00609000"
      },
      {
        "name": "Amudalavalasa",
        "id": 57690,
        "latitude": "18.41025000",
        "longitude": "83.90295000"
      },
      {
        "name": "Anakapalle",
        "id": 57693,
        "latitude": "17.69134000",
        "longitude": "83.00395000"
      },
      {
        "name": "Anantapur",
        "id": 57698,
        "latitude": "14.55000000",
        "longitude": "77.41667000"
      },
      {
        "name": "Atmakur",
        "id": 57758,
        "latitude": "15.88109000",
        "longitude": "78.58704000"
      },
      {
        "name": "Attili",
        "id": 57761,
        "latitude": "16.70000000",
        "longitude": "81.60000000"
      },
      {
        "name": "Avanigadda",
        "id": 57771,
        "latitude": "16.02148000",
        "longitude": "80.91808000"
      },
      {
        "name": "Badvel",
        "id": 57794,
        "latitude": "14.74510000",
        "longitude": "79.06288000"
      },
      {
        "name": "Banganapalle",
        "id": 57849,
        "latitude": "15.31771000",
        "longitude": "78.22669000"
      },
      {
        "name": "Bapatla",
        "id": 58137,
        "latitude": "15.90422000",
        "longitude": "80.46743000"
      },
      {
        "name": "Betamcherla",
        "id": 57939,
        "latitude": "15.45144000",
        "longitude": "78.14797000"
      },
      {
        "name": "Bhattiprolu",
        "id": 57971,
        "latitude": "16.10260000",
        "longitude": "80.78074000"
      },
      {
        "name": "Bhimavaram",
        "id": 58021,
        "latitude": "16.54078000",
        "longitude": "81.52322000"
      },
      {
        "name": "Bhimunipatnam",
        "id": 58022,
        "latitude": "17.89017000",
        "longitude": "83.45203000"
      },
      {
        "name": "Bobbili",
        "id": 58070,
        "latitude": "18.57366000",
        "longitude": "83.35925000"
      },
      {
        "name": "Challapalle",
        "id": 58179,
        "latitude": "16.11756000",
        "longitude": "80.93139000"
      },
      {
        "name": "Chemmumiahpet",
        "id": 131514,
        "latitude": "15.89794000",
        "longitude": "79.32129000"
      },
      {
        "name": "Chilakalurupet",
        "id": 131556,
        "latitude": "16.08987000",
        "longitude": "80.16705000"
      },
      {
        "name": "Chinnachowk",
        "id": 131563,
        "latitude": "14.47516000",
        "longitude": "78.83540000"
      },
      {
        "name": "Chipurupalle",
        "id": 131611,
        "latitude": "18.31142000",
        "longitude": "83.56846000"
      },
      {
        "name": "Chirala",
        "id": 131612,
        "latitude": "15.82385000",
        "longitude": "80.35219000"
      },
      {
        "name": "Chittoor",
        "id": 131575,
        "latitude": "13.41667000",
        "longitude": "79.00000000"
      },
      {
        "name": "Chodavaram",
        "id": 131577,
        "latitude": "17.82884000",
        "longitude": "82.93526000"
      },
      {
        "name": "Cuddapah",
        "id": 131627,
        "latitude": "14.41667000",
        "longitude": "78.75000000"
      },
      {
        "name": "Cumbum",
        "id": 131628,
        "latitude": "15.58171000",
        "longitude": "79.11059000"
      },
      {
        "name": "Darsi",
        "id": 131658,
        "latitude": "15.76978000",
        "longitude": "79.67939000"
      },
      {
        "name": "Dharmavaram",
        "id": 131727,
        "latitude": "14.41435000",
        "longitude": "77.72035000"
      },
      {
        "name": "Dhone",
        "id": 131740,
        "latitude": "15.39520000",
        "longitude": "77.87150000"
      },
      {
        "name": "Diguvametta",
        "id": 131769,
        "latitude": "15.39507000",
        "longitude": "78.82930000"
      },
      {
        "name": "East Godavari",
        "id": 131823,
        "latitude": "17.83333000",
        "longitude": "81.83333000"
      },
      {
        "name": "Elamanchili",
        "id": 131830,
        "latitude": "17.54907000",
        "longitude": "82.85749000"
      },
      {
        "name": "Ellore",
        "id": 131832,
        "latitude": "16.71311000",
        "longitude": "81.10437000"
      },
      {
        "name": "Emmiganur",
        "id": 131836,
        "latitude": "15.77203000",
        "longitude": "77.48345000"
      },
      {
        "name": "Erraguntla",
        "id": 131842,
        "latitude": "14.63853000",
        "longitude": "78.53974000"
      },
      {
        "name": "Etikoppaka",
        "id": 131846,
        "latitude": "17.50000000",
        "longitude": "82.73333000"
      },
      {
        "name": "Gajuwaka",
        "id": 131895,
        "latitude": "17.70000000",
        "longitude": "83.21667000"
      },
      {
        "name": "Ganguvada",
        "id": 131906,
        "latitude": "18.66667000",
        "longitude": "84.11667000"
      },
      {
        "name": "Gannavaram",
        "id": 131915,
        "latitude": "16.54092000",
        "longitude": "80.80213000"
      },
      {
        "name": "Giddalur",
        "id": 131955,
        "latitude": "15.37439000",
        "longitude": "78.92609000"
      },
      {
        "name": "Gokavaram",
        "id": 131972,
        "latitude": "17.25823000",
        "longitude": "81.84985000"
      },
      {
        "name": "Gorantla",
        "id": 131993,
        "latitude": "13.98411000",
        "longitude": "77.77224000"
      },
      {
        "name": "GovindapuramChilakaluripetGuntur",
        "id": 132001,
        "latitude": "16.15477000",
        "longitude": "80.10279000"
      },
      {
        "name": "Gudivada",
        "id": 132010,
        "latitude": "16.43547000",
        "longitude": "80.99555000"
      },
      {
        "name": "Gudlavalleru",
        "id": 132012,
        "latitude": "16.35000000",
        "longitude": "81.05000000"
      },
      {
        "name": "Gudur",
        "id": 132051,
        "latitude": "14.15093000",
        "longitude": "79.85210000"
      },
      {
        "name": "Guntakal Junction",
        "id": 132027,
        "latitude": "15.17112000",
        "longitude": "77.36244000"
      },
      {
        "name": "Guntur",
        "id": 132028,
        "latitude": "16.29974000",
        "longitude": "80.45729000"
      },
      {
        "name": "Hindupur",
        "id": 132099,
        "latitude": "13.82807000",
        "longitude": "77.49143000"
      },
      {
        "name": "Ichchapuram",
        "id": 132151,
        "latitude": "19.11393000",
        "longitude": "84.68721000"
      },
      {
        "name": "Jaggayyapeta",
        "id": 132189,
        "latitude": "16.89380000",
        "longitude": "80.09807000"
      },
      {
        "name": "Jammalamadugu",
        "id": 132228,
        "latitude": "14.84677000",
        "longitude": "78.38314000"
      },
      {
        "name": "Kadiri",
        "id": 132328,
        "latitude": "14.11168000",
        "longitude": "78.15982000"
      },
      {
        "name": "Kaikalur",
        "id": 132332,
        "latitude": "16.55154000",
        "longitude": "81.21400000"
      },
      {
        "name": "Kakinada",
        "id": 132678,
        "latitude": "16.96036000",
        "longitude": "82.23809000"
      },
      {
        "name": "Kalyandurg",
        "id": 132358,
        "latitude": "14.54519000",
        "longitude": "77.10552000"
      },
      {
        "name": "Kamalapuram",
        "id": 132691,
        "latitude": "14.59830000",
        "longitude": "78.66948000"
      },
      {
        "name": "Kandukur",
        "id": 132372,
        "latitude": "15.21542000",
        "longitude": "79.90390000"
      },
      {
        "name": "Kanigiri",
        "id": 132374,
        "latitude": "15.40555000",
        "longitude": "79.50694000"
      },
      {
        "name": "Kankipadu",
        "id": 132376,
        "latitude": "16.43530000",
        "longitude": "80.76715000"
      },
      {
        "name": "Kanuru",
        "id": 132388,
        "latitude": "16.28584000",
        "longitude": "81.25464000"
      },
      {
        "name": "Kavali",
        "id": 132729,
        "latitude": "14.91630000",
        "longitude": "79.99449000"
      },
      {
        "name": "Kolanukonda",
        "id": 132552,
        "latitude": "16.45392000",
        "longitude": "80.61046000"
      },
      {
        "name": "Kondapalle",
        "id": 132567,
        "latitude": "16.61989000",
        "longitude": "80.54244000"
      },
      {
        "name": "Korukollu",
        "id": 132584,
        "latitude": "16.50000000",
        "longitude": "81.25000000"
      },
      {
        "name": "Kosigi",
        "id": 132590,
        "latitude": "15.85510000",
        "longitude": "77.24463000"
      },
      {
        "name": "Kovvur",
        "id": 132616,
        "latitude": "17.01620000",
        "longitude": "81.72934000"
      },
      {
        "name": "Krishna",
        "id": 132621,
        "latitude": "16.66667000",
        "longitude": "81.00000000"
      },
      {
        "name": "Kuppam",
        "id": 132653,
        "latitude": "12.74931000",
        "longitude": "78.34189000"
      },
      {
        "name": "Kurnool",
        "id": 132660,
        "latitude": "15.58333000",
        "longitude": "78.33333000"
      },
      {
        "name": "Macherla",
        "id": 133055,
        "latitude": "16.47635000",
        "longitude": "79.43533000"
      },
      {
        "name": "Machilipatnam",
        "id": 132806,
        "latitude": "16.18747000",
        "longitude": "81.13888000"
      },
      {
        "name": "Madanapalle",
        "id": 132808,
        "latitude": "13.55030000",
        "longitude": "78.50288000"
      },
      {
        "name": "Madugula",
        "id": 133059,
        "latitude": "17.91589000",
        "longitude": "82.81578000"
      },
      {
        "name": "Mandapeta",
        "id": 132890,
        "latitude": "16.86254000",
        "longitude": "81.92921000"
      },
      {
        "name": "Mandasa",
        "id": 132891,
        "latitude": "18.86830000",
        "longitude": "84.46296000"
      },
      {
        "name": "Mangalagiri",
        "id": 132902,
        "latitude": "16.43083000",
        "longitude": "80.56815000"
      },
      {
        "name": "Markapur",
        "id": 133088,
        "latitude": "15.73534000",
        "longitude": "79.26848000"
      },
      {
        "name": "Nagari",
        "id": 133114,
        "latitude": "13.32139000",
        "longitude": "79.58557000"
      },
      {
        "name": "Nagireddipalli",
        "id": 133258,
        "latitude": "14.27005000",
        "longitude": "79.10131000"
      },
      {
        "name": "Nandigama",
        "id": 133143,
        "latitude": "16.77170000",
        "longitude": "80.28596000"
      },
      {
        "name": "Nandikotkur",
        "id": 133144,
        "latitude": "15.85668000",
        "longitude": "78.26569000"
      },
      {
        "name": "Nandyal",
        "id": 133146,
        "latitude": "15.47799000",
        "longitude": "78.48360000"
      },
      {
        "name": "Narasannapeta",
        "id": 133156,
        "latitude": "18.41428000",
        "longitude": "84.04463000"
      },
      {
        "name": "Narasapur",
        "id": 133157,
        "latitude": "16.43425000",
        "longitude": "81.69845000"
      },
      {
        "name": "Narasaraopet",
        "id": 133158,
        "latitude": "16.23488000",
        "longitude": "80.04927000"
      },
      {
        "name": "Narasingapuram",
        "id": 133160,
        "latitude": "13.60759000",
        "longitude": "79.31652000"
      },
      {
        "name": "Narayanavanam",
        "id": 133275,
        "latitude": "13.42565000",
        "longitude": "79.58881000"
      },
      {
        "name": "Narsipatnam",
        "id": 133173,
        "latitude": "17.66709000",
        "longitude": "82.61245000"
      },
      {
        "name": "Nayudupet",
        "id": 133283,
        "latitude": "13.90742000",
        "longitude": "79.89465000"
      },
      {
        "name": "Nellore",
        "id": 133206,
        "latitude": "14.08333000",
        "longitude": "79.58333000"
      },
      {
        "name": "Nidadavole",
        "id": 133214,
        "latitude": "16.90572000",
        "longitude": "81.67222000"
      },
      {
        "name": "Nuzvid",
        "id": 133294,
        "latitude": "16.78854000",
        "longitude": "80.84593000"
      },
      {
        "name": "Ongole",
        "id": 133300,
        "latitude": "15.50357000",
        "longitude": "80.04454000"
      },
      {
        "name": "Pakala",
        "id": 133521,
        "latitude": "13.44903000",
        "longitude": "79.11493000"
      },
      {
        "name": "Palakollu",
        "id": 133523,
        "latitude": "16.51670000",
        "longitude": "81.73000000"
      },
      {
        "name": "Palasa",
        "id": 133340,
        "latitude": "18.77257000",
        "longitude": "84.41012000"
      },
      {
        "name": "Palkonda",
        "id": 133534,
        "latitude": "18.60374000",
        "longitude": "83.75568000"
      },
      {
        "name": "Pallevada",
        "id": 133331,
        "latitude": "16.57790000",
        "longitude": "81.29463000"
      },
      {
        "name": "Palmaner",
        "id": 133336,
        "latitude": "13.20000000",
        "longitude": "78.74725000"
      },
      {
        "name": "Parlakimidi",
        "id": 133361,
        "latitude": "18.78113000",
        "longitude": "84.08836000"
      },
      {
        "name": "Parvatipuram",
        "id": 133549,
        "latitude": "18.78392000",
        "longitude": "83.42569000"
      },
      {
        "name": "Pavuluru",
        "id": 133395,
        "latitude": "15.85292000",
        "longitude": "80.16468000"
      },
      {
        "name": "Pedana",
        "id": 133400,
        "latitude": "16.25582000",
        "longitude": "81.14378000"
      },
      {
        "name": "pedda nakkalapalem",
        "id": 134447,
        "latitude": "15.86680000",
        "longitude": "80.16202000"
      },
      {
        "name": "Peddapuram",
        "id": 133402,
        "latitude": "17.07701000",
        "longitude": "82.13836000"
      },
      {
        "name": "Penugonda",
        "id": 133409,
        "latitude": "16.65363000",
        "longitude": "81.74550000"
      },
      {
        "name": "Penukonda",
        "id": 133410,
        "latitude": "14.08286000",
        "longitude": "77.59473000"
      },
      {
        "name": "Phirangipuram",
        "id": 133440,
        "latitude": "16.29078000",
        "longitude": "80.26233000"
      },
      {
        "name": "Pippara",
        "id": 133455,
        "latitude": "16.71667000",
        "longitude": "81.55000000"
      },
      {
        "name": "Pithapuram",
        "id": 133465,
        "latitude": "17.11680000",
        "longitude": "82.25284000"
      },
      {
        "name": "Polavaram",
        "id": 133468,
        "latitude": "17.24754000",
        "longitude": "81.64372000"
      },
      {
        "name": "Ponnur",
        "id": 133476,
        "latitude": "16.07114000",
        "longitude": "80.54944000"
      },
      {
        "name": "Ponnuru",
        "id": 133478,
        "latitude": "16.06547000",
        "longitude": "80.55203000"
      },
      {
        "name": "Prakasam",
        "id": 133485,
        "latitude": "15.50000000",
        "longitude": "79.50000000"
      },
      {
        "name": "Proddatur",
        "id": 133489,
        "latitude": "14.75020000",
        "longitude": "78.54813000"
      },
      {
        "name": "Pulivendla",
        "id": 133497,
        "latitude": "14.42139000",
        "longitude": "78.22502000"
      },
      {
        "name": "Punganuru",
        "id": 133506,
        "latitude": "13.36672000",
        "longitude": "78.57186000"
      },
      {
        "name": "Puttaparthi",
        "id": 133517,
        "latitude": "14.16520000",
        "longitude": "77.81170000"
      },
      {
        "name": "Puttur",
        "id": 133519,
        "latitude": "13.44189000",
        "longitude": "79.55314000"
      },
      {
        "name": "Rajahmundry",
        "id": 133671,
        "latitude": "17.00517000",
        "longitude": "81.77784000"
      },
      {
        "name": "Ramachandrapuram",
        "id": 133691,
        "latitude": "16.83636000",
        "longitude": "82.02871000"
      },
      {
        "name": "Ramanayyapeta",
        "id": 133600,
        "latitude": "16.94516000",
        "longitude": "82.23850000"
      },
      {
        "name": "Ramapuram",
        "id": 133712,
        "latitude": "15.28749000",
        "longitude": "77.86722000"
      },
      {
        "name": "Rampachodavaram",
        "id": 133605,
        "latitude": "17.44088000",
        "longitude": "81.77558000"
      },
      {
        "name": "Rayachoti",
        "id": 133729,
        "latitude": "14.05723000",
        "longitude": "78.75056000"
      },
      {
        "name": "Rayadrug",
        "id": 133730,
        "latitude": "14.69971000",
        "longitude": "76.85241000"
      },
      {
        "name": "Razam",
        "id": 133734,
        "latitude": "18.44909000",
        "longitude": "83.65957000"
      },
      {
        "name": "Razampeta",
        "id": 133732,
        "latitude": "14.19544000",
        "longitude": "79.15896000"
      },
      {
        "name": "Razole",
        "id": 133733,
        "latitude": "16.47608000",
        "longitude": "81.83912000"
      },
      {
        "name": "Renigunta",
        "id": 133627,
        "latitude": "13.65143000",
        "longitude": "79.51256000"
      },
      {
        "name": "Repalle",
        "id": 133630,
        "latitude": "16.01840000",
        "longitude": "80.82958000"
      },
      {
        "name": "Salur",
        "id": 134065,
        "latitude": "18.51716000",
        "longitude": "83.20548000"
      },
      {
        "name": "Samalkot",
        "id": 134066,
        "latitude": "17.05675000",
        "longitude": "82.17639000"
      },
      {
        "name": "Sattenapalle",
        "id": 133822,
        "latitude": "16.39381000",
        "longitude": "80.15221000"
      },
      {
        "name": "Singarayakonda",
        "id": 133946,
        "latitude": "15.23046000",
        "longitude": "80.02794000"
      },
      {
        "name": "Sompeta",
        "id": 133990,
        "latitude": "18.94419000",
        "longitude": "84.58449000"
      },
      {
        "name": "Srikakulam",
        "id": 134019,
        "latitude": "18.29890000",
        "longitude": "83.89751000"
      },
      {
        "name": "Srisailain",
        "id": 134032,
        "latitude": "16.07217000",
        "longitude": "78.86816000"
      },
      {
        "name": "Suluru",
        "id": 134093,
        "latitude": "13.70000000",
        "longitude": "80.01667000"
      },
      {
        "name": "Tadepalle",
        "id": 134226,
        "latitude": "16.48333000",
        "longitude": "80.60000000"
      },
      {
        "name": "Tadepallegudem",
        "id": 134227,
        "latitude": "16.81467000",
        "longitude": "81.52717000"
      },
      {
        "name": "Tadpatri",
        "id": 134228,
        "latitude": "14.90832000",
        "longitude": "78.01031000"
      },
      {
        "name": "Tanuku",
        "id": 134113,
        "latitude": "16.75438000",
        "longitude": "81.68143000"
      },
      {
        "name": "Tekkali",
        "id": 134126,
        "latitude": "18.60570000",
        "longitude": "84.23546000"
      },
      {
        "name": "Tirumala",
        "id": 134183,
        "latitude": "13.68333000",
        "longitude": "79.35000000"
      },
      {
        "name": "Tirupati",
        "id": 134187,
        "latitude": "13.63551000",
        "longitude": "79.41989000"
      },
      {
        "name": "Tuni",
        "id": 134222,
        "latitude": "17.35905000",
        "longitude": "82.54607000"
      },
      {
        "name": "Uravakonda",
        "id": 134292,
        "latitude": "14.94348000",
        "longitude": "77.25494000"
      },
      {
        "name": "vadlamuru",
        "id": 134448,
        "latitude": "17.09545000",
        "longitude": "82.16565000"
      },
      {
        "name": "Vadlapudi",
        "id": 134308,
        "latitude": "14.31119000",
        "longitude": "79.80430000"
      },
      {
        "name": "Venkatagiri",
        "id": 134347,
        "latitude": "13.96005000",
        "longitude": "79.58032000"
      },
      {
        "name": "Vepagunta",
        "id": 134348,
        "latitude": "17.77844000",
        "longitude": "83.21577000"
      },
      {
        "name": "Vetapalem",
        "id": 134350,
        "latitude": "15.78502000",
        "longitude": "80.30663000"
      },
      {
        "name": "Vijayawada",
        "id": 134356,
        "latitude": "16.50745000",
        "longitude": "80.64660000"
      },
      {
        "name": "Vinukonda",
        "id": 134364,
        "latitude": "16.05310000",
        "longitude": "79.73964000"
      },
      {
        "name": "Visakhapatnam",
        "id": 134369,
        "latitude": "17.68009000",
        "longitude": "83.20161000"
      },
      {
        "name": "Vizianagaram",
        "id": 134373,
        "latitude": "18.11692000",
        "longitude": "83.41148000"
      },
      {
        "name": "Vizianagaram District",
        "id": 134374,
        "latitude": "18.41102000",
        "longitude": "83.37677000"
      },
      {
        "name": "Vuyyuru",
        "id": 134377,
        "latitude": "16.36307000",
        "longitude": "80.84406000"
      },
      {
        "name": "West Godavari",
        "id": 134407,
        "latitude": "17.00000000",
        "longitude": "81.16667000"
      },
      {
        "name": "Yanam",
        "id": 134424,
        "latitude": "16.73308000",
        "longitude": "82.21364000"
      },
      {
        "name": "Yanamalakuduru",
        "id": 134426,
        "latitude": "16.48531000",
        "longitude": "80.66746000"
      },
      {
        "name": "Yarada",
        "id": 134437,
        "latitude": "17.65872000",
        "longitude": "83.27419000"
      }
    ]
  },
  {
    "state": "Arunachal Pradesh",
    "cities": [
      {
        "name": "Along",
        "id": 57645,
        "latitude": "28.16951000",
        "longitude": "94.80060000"
      },
      {
        "name": "Anjaw",
        "id": 57708,
        "latitude": "28.06549000",
        "longitude": "96.82878000"
      },
      {
        "name": "Basar",
        "id": 58151,
        "latitude": "27.99008000",
        "longitude": "94.69451000"
      },
      {
        "name": "Bomdila",
        "id": 58080,
        "latitude": "27.26475000",
        "longitude": "92.42472000"
      },
      {
        "name": "Changlang",
        "id": 58196,
        "latitude": "27.36265000",
        "longitude": "96.34518000"
      },
      {
        "name": "Dibang Valley",
        "id": 131763,
        "latitude": "28.70000000",
        "longitude": "95.70000000"
      },
      {
        "name": "East Kameng",
        "id": 131826,
        "latitude": "27.30000000",
        "longitude": "93.05000000"
      },
      {
        "name": "East Siang",
        "id": 131828,
        "latitude": "28.12379000",
        "longitude": "95.16339000"
      },
      {
        "name": "Hayuliang",
        "id": 132090,
        "latitude": "28.07301000",
        "longitude": "96.54305000"
      },
      {
        "name": "Itanagar",
        "id": 132178,
        "latitude": "27.08694000",
        "longitude": "93.60987000"
      },
      {
        "name": "Khonsa",
        "id": 132499,
        "latitude": "27.01667000",
        "longitude": "95.56667000"
      },
      {
        "name": "Kurung Kumey",
        "id": 132663,
        "latitude": "27.99983000",
        "longitude": "93.39240000"
      },
      {
        "name": "Lohit District",
        "id": 132769,
        "latitude": "27.84012000",
        "longitude": "96.19521000"
      },
      {
        "name": "Lower Dibang Valley",
        "id": 132779,
        "latitude": "28.37258000",
        "longitude": "95.88040000"
      },
      {
        "name": "Lower Subansiri",
        "id": 132780,
        "latitude": "27.62554000",
        "longitude": "93.93908000"
      },
      {
        "name": "Margherita",
        "id": 132934,
        "latitude": "27.28482000",
        "longitude": "95.66796000"
      },
      {
        "name": "Naharlagun",
        "id": 133121,
        "latitude": "27.10467000",
        "longitude": "93.69518000"
      },
      {
        "name": "Pasighat",
        "id": 133551,
        "latitude": "28.06631000",
        "longitude": "95.32678000"
      },
      {
        "name": "Tawang",
        "id": 134120,
        "latitude": "27.57417000",
        "longitude": "91.92437000"
      },
      {
        "name": "Tezu",
        "id": 134135,
        "latitude": "27.91256000",
        "longitude": "96.12882000"
      },
      {
        "name": "Tirap",
        "id": 134199,
        "latitude": "27.01917000",
        "longitude": "95.51788000"
      },
      {
        "name": "Upper Siang",
        "id": 134288,
        "latitude": "28.83355000",
        "longitude": "94.91806000"
      },
      {
        "name": "Upper Subansiri",
        "id": 134289,
        "latitude": "28.30000000",
        "longitude": "94.00000000"
      },
      {
        "name": "West Kameng",
        "id": 134409,
        "latitude": "27.40000000",
        "longitude": "92.35000000"
      },
      {
        "name": "West Siang",
        "id": 134411,
        "latitude": "28.40000000",
        "longitude": "94.55000000"
      },
      {
        "name": "Ziro",
        "id": 134444,
        "latitude": "27.59497000",
        "longitude": "93.83854000"
      }
    ]
  },
  {
    "state": "Assam",
    "cities": [
      {
        "name": "Abhayapuri",
        "id": 57585,
        "latitude": "26.32255000",
        "longitude": "90.68526000"
      },
      {
        "name": "Amguri",
        "id": 57679,
        "latitude": "26.81482000",
        "longitude": "94.52614000"
      },
      {
        "name": "Badarpur",
        "id": 57787,
        "latitude": "24.86852000",
        "longitude": "92.59606000"
      },
      {
        "name": "Baksa",
        "id": 57820,
        "latitude": "26.69804000",
        "longitude": "91.15142000"
      },
      {
        "name": "Barpathar",
        "id": 57883,
        "latitude": "26.28709000",
        "longitude": "93.88844000"
      },
      {
        "name": "Barpeta",
        "id": 57884,
        "latitude": "26.47104000",
        "longitude": "91.03080000"
      },
      {
        "name": "Barpeta Road",
        "id": 57885,
        "latitude": "26.50284000",
        "longitude": "90.96937000"
      },
      {
        "name": "Basugaon",
        "id": 58150,
        "latitude": "26.46742000",
        "longitude": "90.41951000"
      },
      {
        "name": "Bihpuriagaon",
        "id": 58028,
        "latitude": "27.01718000",
        "longitude": "93.91673000"
      },
      {
        "name": "Bijni",
        "id": 58034,
        "latitude": "26.49588000",
        "longitude": "90.70298000"
      },
      {
        "name": "Bilasipara",
        "id": 58053,
        "latitude": "26.23285000",
        "longitude": "90.23410000"
      },
      {
        "name": "Bokajan",
        "id": 58075,
        "latitude": "26.02131000",
        "longitude": "93.77945000"
      },
      {
        "name": "Bokakhat",
        "id": 58077,
        "latitude": "26.64018000",
        "longitude": "93.60052000"
      },
      {
        "name": "Bongaigaon",
        "id": 58081,
        "latitude": "26.46030000",
        "longitude": "90.64640000"
      },
      {
        "name": "Cachar",
        "id": 131634,
        "latitude": "24.78213000",
        "longitude": "92.85771000"
      },
      {
        "name": "Chabua",
        "id": 131588,
        "latitude": "27.48253000",
        "longitude": "95.17451000"
      },
      {
        "name": "Chapar",
        "id": 131604,
        "latitude": "26.27266000",
        "longitude": "90.44556000"
      },
      {
        "name": "Chirang",
        "id": 131568,
        "latitude": "26.52527000",
        "longitude": "90.49066000"
      },
      {
        "name": "Darrang",
        "id": 131657,
        "latitude": "26.51195000",
        "longitude": "92.16843000"
      },
      {
        "name": "Dergaon",
        "id": 131695,
        "latitude": "26.70000000",
        "longitude": "93.96667000"
      },
      {
        "name": "Dhekiajuli",
        "id": 131732,
        "latitude": "26.70367000",
        "longitude": "92.47808000"
      },
      {
        "name": "Dhemaji",
        "id": 131733,
        "latitude": "27.60910000",
        "longitude": "94.79420000"
      },
      {
        "name": "Dhing",
        "id": 131737,
        "latitude": "26.46793000",
        "longitude": "92.47336000"
      },
      {
        "name": "Dhubri",
        "id": 131744,
        "latitude": "26.06749000",
        "longitude": "90.02238000"
      },
      {
        "name": "Dibrugarh",
        "id": 131762,
        "latitude": "27.50000000",
        "longitude": "95.00000000"
      },
      {
        "name": "Digboi",
        "id": 131766,
        "latitude": "27.39321000",
        "longitude": "95.61839000"
      },
      {
        "name": "Dima Hasao District",
        "id": 131770,
        "latitude": "25.50000000",
        "longitude": "93.00000000"
      },
      {
        "name": "Diphu",
        "id": 131776,
        "latitude": "25.84341000",
        "longitude": "93.43116000"
      },
      {
        "name": "Dispur",
        "id": 131778,
        "latitude": "26.13564000",
        "longitude": "91.80069000"
      },
      {
        "name": "Duliagaon",
        "id": 131795,
        "latitude": "27.37227000",
        "longitude": "95.30754000"
      },
      {
        "name": "Dum Duma",
        "id": 131796,
        "latitude": "27.56884000",
        "longitude": "95.55664000"
      },
      {
        "name": "Gauripur",
        "id": 131928,
        "latitude": "26.08334000",
        "longitude": "89.96118000"
      },
      {
        "name": "Goalpara",
        "id": 132004,
        "latitude": "26.12791000",
        "longitude": "90.60974000"
      },
      {
        "name": "Gohpur",
        "id": 131967,
        "latitude": "26.88184000",
        "longitude": "93.61560000"
      },
      {
        "name": "Golaghat",
        "id": 131976,
        "latitude": "26.40920000",
        "longitude": "93.91193000"
      },
      {
        "name": "Golakganj",
        "id": 131977,
        "latitude": "26.10216000",
        "longitude": "89.82275000"
      },
      {
        "name": "Goshaingaon",
        "id": 131997,
        "latitude": "26.43946000",
        "longitude": "89.96307000"
      },
      {
        "name": "Guwahati",
        "id": 132039,
        "latitude": "26.18440000",
        "longitude": "91.74580000"
      },
      {
        "name": "Haflong",
        "id": 132134,
        "latitude": "25.16478000",
        "longitude": "93.01744000"
      },
      {
        "name": "Hailakandi",
        "id": 132055,
        "latitude": "24.50170000",
        "longitude": "92.60069000"
      },
      {
        "name": "Hajo",
        "id": 132137,
        "latitude": "26.24520000",
        "longitude": "91.52525000"
      },
      {
        "name": "Hojai",
        "id": 132110,
        "latitude": "26.00281000",
        "longitude": "92.85605000"
      },
      {
        "name": "Howli",
        "id": 132126,
        "latitude": "26.42237000",
        "longitude": "90.98004000"
      },
      {
        "name": "Jogighopa",
        "id": 132291,
        "latitude": "26.22646000",
        "longitude": "90.57247000"
      },
      {
        "name": "Jorhat",
        "id": 132294,
        "latitude": "26.80000000",
        "longitude": "94.26000000"
      },
      {
        "name": "Kamrup",
        "id": 132693,
        "latitude": "26.22322000",
        "longitude": "91.65344000"
      },
      {
        "name": "Kamrup Metropolitan",
        "id": 132366,
        "latitude": "26.05375000",
        "longitude": "92.00763000"
      },
      {
        "name": "Karbi Anglong",
        "id": 132718,
        "latitude": "26.00000000",
        "longitude": "93.50000000"
      },
      {
        "name": "Karimganj",
        "id": 132402,
        "latitude": "24.60000000",
        "longitude": "92.40000000"
      },
      {
        "name": "Kharupatia",
        "id": 132518,
        "latitude": "26.51839000",
        "longitude": "92.14722000"
      },
      {
        "name": "Kokrajhar",
        "id": 132551,
        "latitude": "26.60000000",
        "longitude": "90.20000000"
      },
      {
        "name": "Lakhimpur",
        "id": 132742,
        "latitude": "27.35000000",
        "longitude": "94.25000000"
      },
      {
        "name": "Lakhipur",
        "id": 132743,
        "latitude": "24.79281000",
        "longitude": "93.00910000"
      },
      {
        "name": "Lala",
        "id": 132793,
        "latitude": "24.55418000",
        "longitude": "92.61592000"
      },
      {
        "name": "Lumding Railway Colony",
        "id": 132786,
        "latitude": "25.74903000",
        "longitude": "93.16998000"
      },
      {
        "name": "Mahur",
        "id": 132842,
        "latitude": "25.18305000",
        "longitude": "93.11342000"
      },
      {
        "name": "Maibong",
        "id": 132853,
        "latitude": "25.30125000",
        "longitude": "93.13811000"
      },
      {
        "name": "Makum",
        "id": 133064,
        "latitude": "27.48652000",
        "longitude": "95.43646000"
      },
      {
        "name": "Mangaldai",
        "id": 132904,
        "latitude": "26.44212000",
        "longitude": "92.03047000"
      },
      {
        "name": "Mariani",
        "id": 132937,
        "latitude": "26.65725000",
        "longitude": "94.31529000"
      },
      {
        "name": "Moranha",
        "id": 133002,
        "latitude": "27.18735000",
        "longitude": "94.91557000"
      },
      {
        "name": "Morigaon",
        "id": 132995,
        "latitude": "26.25213000",
        "longitude": "92.34238000"
      },
      {
        "name": "Nagaon",
        "id": 133110,
        "latitude": "26.35037000",
        "longitude": "92.69225000"
      },
      {
        "name": "Nahorkatiya",
        "id": 133122,
        "latitude": "27.28912000",
        "longitude": "95.34180000"
      },
      {
        "name": "Nalbari",
        "id": 133130,
        "latitude": "26.50000000",
        "longitude": "91.40000000"
      },
      {
        "name": "Namrup",
        "id": 133266,
        "latitude": "27.19395000",
        "longitude": "95.31929000"
      },
      {
        "name": "Nazira",
        "id": 133284,
        "latitude": "26.91649000",
        "longitude": "94.73611000"
      },
      {
        "name": "North Guwahati",
        "id": 133239,
        "latitude": "26.19749000",
        "longitude": "91.72020000"
      },
      {
        "name": "North Lakhimpur",
        "id": 133240,
        "latitude": "27.23517000",
        "longitude": "94.10357000"
      },
      {
        "name": "Numaligarh",
        "id": 133248,
        "latitude": "26.62249000",
        "longitude": "93.72225000"
      },
      {
        "name": "Palasbari",
        "id": 133341,
        "latitude": "26.12388000",
        "longitude": "91.53974000"
      },
      {
        "name": "Raha",
        "id": 133584,
        "latitude": "26.23333000",
        "longitude": "92.51667000"
      },
      {
        "name": "Rangapara",
        "id": 133610,
        "latitude": "26.83772000",
        "longitude": "92.66876000"
      },
      {
        "name": "Rangia",
        "id": 133608,
        "latitude": "26.44931000",
        "longitude": "91.61356000"
      },
      {
        "name": "Sapatgram",
        "id": 133798,
        "latitude": "26.33732000",
        "longitude": "90.12360000"
      },
      {
        "name": "Sarupathar",
        "id": 133809,
        "latitude": "26.20600000",
        "longitude": "96.81000000"
      },
      {
        "name": "Sibsagar",
        "id": 133916,
        "latitude": "26.98427000",
        "longitude": "94.63784000"
      },
      {
        "name": "Silapathar",
        "id": 133934,
        "latitude": "27.59441000",
        "longitude": "94.72402000"
      },
      {
        "name": "Silchar",
        "id": 133935,
        "latitude": "24.82733000",
        "longitude": "92.79787000"
      },
      {
        "name": "Soalkuchi",
        "id": 133979,
        "latitude": "26.16806000",
        "longitude": "91.57111000"
      },
      {
        "name": "Sonari",
        "id": 133998,
        "latitude": "27.02462000",
        "longitude": "95.01629000"
      },
      {
        "name": "Sonitpur",
        "id": 133996,
        "latitude": "26.76748000",
        "longitude": "92.96425000"
      },
      {
        "name": "Sorbhog",
        "id": 134003,
        "latitude": "26.48612000",
        "longitude": "90.88590000"
      },
      {
        "name": "Tezpur",
        "id": 134134,
        "latitude": "26.63333000",
        "longitude": "92.80000000"
      },
      {
        "name": "Tinsukia",
        "id": 134175,
        "latitude": "27.60000000",
        "longitude": "95.60000000"
      },
      {
        "name": "Titabar",
        "id": 134203,
        "latitude": "26.60140000",
        "longitude": "94.20386000"
      },
      {
        "name": "Udalguri",
        "id": 134252,
        "latitude": "26.75367000",
        "longitude": "92.10215000"
      }
    ]
  },
  {
    "state": "Bihar",
    "cities": [
      {
        "name": "Amarpur",
        "id": 57661,
        "latitude": "25.03967000",
        "longitude": "86.90247000"
      },
      {
        "name": "Araria",
        "id": 57730,
        "latitude": "26.20000000",
        "longitude": "87.40000000"
      },
      {
        "name": "Arrah",
        "id": 57739,
        "latitude": "25.55629000",
        "longitude": "84.66335000"
      },
      {
        "name": "Arwal",
        "id": 57747,
        "latitude": "25.16158000",
        "longitude": "84.69040000"
      },
      {
        "name": "Asarganj",
        "id": 57749,
        "latitude": "25.15046000",
        "longitude": "86.68639000"
      },
      {
        "name": "Aurangabad",
        "id": 57766,
        "latitude": "24.75204000",
        "longitude": "84.37420000"
      },
      {
        "name": "Bagaha",
        "id": 57796,
        "latitude": "27.09918000",
        "longitude": "84.09003000"
      },
      {
        "name": "Bahadurganj",
        "id": 57809,
        "latitude": "26.26172000",
        "longitude": "87.82443000"
      },
      {
        "name": "Bairagnia",
        "id": 57815,
        "latitude": "26.74063000",
        "longitude": "85.27323000"
      },
      {
        "name": "Baisi",
        "id": 57816,
        "latitude": "25.86302000",
        "longitude": "87.74487000"
      },
      {
        "name": "Bakhtiyarpur",
        "id": 57818,
        "latitude": "25.46179000",
        "longitude": "85.53179000"
      },
      {
        "name": "Bangaon",
        "id": 57850,
        "latitude": "25.86728000",
        "longitude": "86.51152000"
      },
      {
        "name": "Banka",
        "id": 57854,
        "latitude": "24.89214000",
        "longitude": "86.98425000"
      },
      {
        "name": "Banmankhi",
        "id": 57855,
        "latitude": "25.88857000",
        "longitude": "87.19421000"
      },
      {
        "name": "Bar Bigha",
        "id": 57860,
        "latitude": "25.21855000",
        "longitude": "85.73320000"
      },
      {
        "name": "Barauli",
        "id": 57864,
        "latitude": "26.38109000",
        "longitude": "84.58648000"
      },
      {
        "name": "Barh",
        "id": 58141,
        "latitude": "25.48339000",
        "longitude": "85.70928000"
      },
      {
        "name": "Barhiya",
        "id": 57873,
        "latitude": "25.28814000",
        "longitude": "86.02055000"
      },
      {
        "name": "Bariarpur",
        "id": 57875,
        "latitude": "25.28791000",
        "longitude": "86.57643000"
      },
      {
        "name": "Baruni",
        "id": 58145,
        "latitude": "25.47509000",
        "longitude": "85.96813000"
      },
      {
        "name": "Begusarai",
        "id": 57915,
        "latitude": "25.41853000",
        "longitude": "86.13389000"
      },
      {
        "name": "Belsand",
        "id": 57927,
        "latitude": "26.44365000",
        "longitude": "85.40076000"
      },
      {
        "name": "Bettiah",
        "id": 57941,
        "latitude": "26.80229000",
        "longitude": "84.50311000"
      },
      {
        "name": "Bhabhua",
        "id": 57947,
        "latitude": "25.04049000",
        "longitude": "83.60749000"
      },
      {
        "name": "Bhagalpur",
        "id": 58009,
        "latitude": "25.29023000",
        "longitude": "87.06665000"
      },
      {
        "name": "Bhagirathpur",
        "id": 57957,
        "latitude": "26.26950000",
        "longitude": "86.06346000"
      },
      {
        "name": "Bhawanipur",
        "id": 57974,
        "latitude": "26.45352000",
        "longitude": "87.02744000"
      },
      {
        "name": "Bhojpur",
        "id": 57991,
        "latitude": "25.30886000",
        "longitude": "84.44504000"
      },
      {
        "name": "Bihar Sharif",
        "id": 58029,
        "latitude": "25.20084000",
        "longitude": "85.52389000"
      },
      {
        "name": "Bihariganj",
        "id": 58030,
        "latitude": "25.73415000",
        "longitude": "86.98837000"
      },
      {
        "name": "Bikramganj",
        "id": 58039,
        "latitude": "25.21073000",
        "longitude": "84.25508000"
      },
      {
        "name": "Birpur",
        "id": 58160,
        "latitude": "26.50823000",
        "longitude": "87.01194000"
      },
      {
        "name": "Bodh Gaya",
        "id": 58089,
        "latitude": "24.69808000",
        "longitude": "84.98690000"
      },
      {
        "name": "Buxar",
        "id": 58100,
        "latitude": "25.50000000",
        "longitude": "84.10000000"
      },
      {
        "name": "Chakia",
        "id": 131590,
        "latitude": "26.41598000",
        "longitude": "85.04665000"
      },
      {
        "name": "Chapra",
        "id": 131605,
        "latitude": "25.78031000",
        "longitude": "84.74709000"
      },
      {
        "name": "Chhatapur",
        "id": 131541,
        "latitude": "26.21965000",
        "longitude": "87.00479000"
      },
      {
        "name": "Colgong",
        "id": 131620,
        "latitude": "25.26328000",
        "longitude": "87.23264000"
      },
      {
        "name": "Dalsingh Sarai",
        "id": 131647,
        "latitude": "25.66795000",
        "longitude": "85.83636000"
      },
      {
        "name": "Darbhanga",
        "id": 131654,
        "latitude": "26.00000000",
        "longitude": "86.00000000"
      },
      {
        "name": "Daudnagar",
        "id": 131664,
        "latitude": "25.03473000",
        "longitude": "84.40095000"
      },
      {
        "name": "Dehri",
        "id": 131677,
        "latitude": "24.90247000",
        "longitude": "84.18217000"
      },
      {
        "name": "Dhaka",
        "id": 131748,
        "latitude": "26.67479000",
        "longitude": "85.16698000"
      },
      {
        "name": "Dighwara",
        "id": 131767,
        "latitude": "25.74434000",
        "longitude": "85.01003000"
      },
      {
        "name": "Dinapore",
        "id": 131773,
        "latitude": "25.63705000",
        "longitude": "85.04794000"
      },
      {
        "name": "Dumra",
        "id": 131798,
        "latitude": "26.56708000",
        "longitude": "85.52040000"
      },
      {
        "name": "Dumraon",
        "id": 131799,
        "latitude": "25.55265000",
        "longitude": "84.15149000"
      },
      {
        "name": "Fatwa",
        "id": 131873,
        "latitude": "25.50958000",
        "longitude": "85.30504000"
      },
      {
        "name": "Forbesganj",
        "id": 131878,
        "latitude": "26.30253000",
        "longitude": "87.26556000"
      },
      {
        "name": "Gaya",
        "id": 131932,
        "latitude": "24.79686000",
        "longitude": "85.00385000"
      },
      {
        "name": "Ghoga",
        "id": 131943,
        "latitude": "25.21738000",
        "longitude": "87.15710000"
      },
      {
        "name": "Gopalganj",
        "id": 131987,
        "latitude": "26.50000000",
        "longitude": "84.33333000"
      },
      {
        "name": "Hajipur",
        "id": 132138,
        "latitude": "25.68544000",
        "longitude": "85.20981000"
      },
      {
        "name": "Hilsa",
        "id": 132095,
        "latitude": "25.31642000",
        "longitude": "85.28234000"
      },
      {
        "name": "Hisua",
        "id": 132107,
        "latitude": "24.83360000",
        "longitude": "85.41729000"
      },
      {
        "name": "Islampur",
        "id": 132174,
        "latitude": "25.14075000",
        "longitude": "85.20587000"
      },
      {
        "name": "Jagdispur",
        "id": 132188,
        "latitude": "25.46811000",
        "longitude": "84.41939000"
      },
      {
        "name": "Jahanabad",
        "id": 132198,
        "latitude": "25.21368000",
        "longitude": "84.98710000"
      },
      {
        "name": "Jamalpur",
        "id": 132234,
        "latitude": "25.31258000",
        "longitude": "86.48888000"
      },
      {
        "name": "Jamui",
        "id": 132233,
        "latitude": "24.92082000",
        "longitude": "86.17538000"
      },
      {
        "name": "Jaynagar",
        "id": 132258,
        "latitude": "26.59048000",
        "longitude": "86.13791000"
      },
      {
        "name": "Jehanabad",
        "id": 132259,
        "latitude": "25.20701000",
        "longitude": "84.99573000"
      },
      {
        "name": "Jha-Jha",
        "id": 132274,
        "latitude": "24.77107000",
        "longitude": "86.37888000"
      },
      {
        "name": "Jhanjharpur",
        "id": 132267,
        "latitude": "26.26467000",
        "longitude": "86.27993000"
      },
      {
        "name": "Jogbani",
        "id": 132288,
        "latitude": "26.39905000",
        "longitude": "87.26525000"
      },
      {
        "name": "Kaimur District",
        "id": 132337,
        "latitude": "25.05077000",
        "longitude": "83.58261000"
      },
      {
        "name": "Kasba",
        "id": 132417,
        "latitude": "25.85643000",
        "longitude": "87.53836000"
      },
      {
        "name": "Katihar",
        "id": 132423,
        "latitude": "25.50000000",
        "longitude": "87.60000000"
      },
      {
        "name": "Khagaria",
        "id": 132451,
        "latitude": "25.50220000",
        "longitude": "86.46708000"
      },
      {
        "name": "Khagaul",
        "id": 132452,
        "latitude": "25.57898000",
        "longitude": "85.04564000"
      },
      {
        "name": "Kharagpur",
        "id": 132470,
        "latitude": "25.12446000",
        "longitude": "86.55578000"
      },
      {
        "name": "Khusropur",
        "id": 132510,
        "latitude": "25.48174000",
        "longitude": "85.38492000"
      },
      {
        "name": "Kishanganj",
        "id": 132529,
        "latitude": "26.30000000",
        "longitude": "88.00000000"
      },
      {
        "name": "Koath",
        "id": 132620,
        "latitude": "25.32643000",
        "longitude": "84.25983000"
      },
      {
        "name": "Koelwar",
        "id": 132548,
        "latitude": "25.58055000",
        "longitude": "84.79751000"
      },
      {
        "name": "Lakhisarai",
        "id": 132744,
        "latitude": "25.20000000",
        "longitude": "86.20000000"
      },
      {
        "name": "Lalganj",
        "id": 132795,
        "latitude": "25.86894000",
        "longitude": "85.17394000"
      },
      {
        "name": "Luckeesarai",
        "id": 132781,
        "latitude": "25.17650000",
        "longitude": "86.09470000"
      },
      {
        "name": "Madhepura",
        "id": 132812,
        "latitude": "25.80000000",
        "longitude": "87.00000000"
      },
      {
        "name": "Madhubani",
        "id": 132815,
        "latitude": "26.35367000",
        "longitude": "86.07169000"
      },
      {
        "name": "Maharajgani",
        "id": 132849,
        "latitude": "26.11017000",
        "longitude": "84.50365000"
      },
      {
        "name": "Mairwa",
        "id": 132859,
        "latitude": "26.23218000",
        "longitude": "84.16349000"
      },
      {
        "name": "Maner",
        "id": 132901,
        "latitude": "25.64602000",
        "longitude": "84.87291000"
      },
      {
        "name": "Manihari",
        "id": 132911,
        "latitude": "25.33891000",
        "longitude": "87.61998000"
      },
      {
        "name": "Marhaura",
        "id": 132935,
        "latitude": "25.97349000",
        "longitude": "84.86796000"
      },
      {
        "name": "Masaurhi Buzurg",
        "id": 132938,
        "latitude": "25.35417000",
        "longitude": "85.03195000"
      },
      {
        "name": "Mohiuddi nagar",
        "id": 132984,
        "latitude": "25.57374000",
        "longitude": "85.66944000"
      },
      {
        "name": "Mokameh",
        "id": 132988,
        "latitude": "25.39662000",
        "longitude": "85.92190000"
      },
      {
        "name": "Monghyr",
        "id": 132991,
        "latitude": "25.37459000",
        "longitude": "86.47455000"
      },
      {
        "name": "Mothihari",
        "id": 133005,
        "latitude": "26.64862000",
        "longitude": "84.91656000"
      },
      {
        "name": "Munger",
        "id": 133032,
        "latitude": "25.36099000",
        "longitude": "86.46515000"
      },
      {
        "name": "Murliganj",
        "id": 133037,
        "latitude": "25.89690000",
        "longitude": "86.99577000"
      },
      {
        "name": "Muzaffarpur",
        "id": 133052,
        "latitude": "26.16667000",
        "longitude": "85.41667000"
      },
      {
        "name": "Nabinagar",
        "id": 133105,
        "latitude": "24.60681000",
        "longitude": "84.12624000"
      },
      {
        "name": "Nalanda",
        "id": 133262,
        "latitude": "25.25000000",
        "longitude": "85.58333000"
      },
      {
        "name": "Nasriganj",
        "id": 133279,
        "latitude": "25.05140000",
        "longitude": "84.32839000"
      },
      {
        "name": "Naugachhia",
        "id": 133182,
        "latitude": "25.38807000",
        "longitude": "87.09906000"
      },
      {
        "name": "Nawada",
        "id": 133192,
        "latitude": "24.75000000",
        "longitude": "85.50000000"
      },
      {
        "name": "Nirmali",
        "id": 133222,
        "latitude": "26.31397000",
        "longitude": "86.58537000"
      },
      {
        "name": "Pashchim Champaran",
        "id": 133373,
        "latitude": "27.00000000",
        "longitude": "84.50000000"
      },
      {
        "name": "Patna",
        "id": 133386,
        "latitude": "25.41667000",
        "longitude": "85.16667000"
      },
      {
        "name": "Piro",
        "id": 133459,
        "latitude": "25.33218000",
        "longitude": "84.40454000"
      },
      {
        "name": "Pupri",
        "id": 133509,
        "latitude": "26.47079000",
        "longitude": "85.70311000"
      },
      {
        "name": "Purba Champaran",
        "id": 133570,
        "latitude": "26.58333000",
        "longitude": "84.83333000"
      },
      {
        "name": "Purnia",
        "id": 133512,
        "latitude": "25.81614000",
        "longitude": "87.40708000"
      },
      {
        "name": "Rafiganj",
        "id": 133581,
        "latitude": "24.81757000",
        "longitude": "84.63445000"
      },
      {
        "name": "Raghunathpur",
        "id": 133582,
        "latitude": "25.64492000",
        "longitude": "87.91762000"
      },
      {
        "name": "Rajgir",
        "id": 133678,
        "latitude": "25.02828000",
        "longitude": "85.42079000"
      },
      {
        "name": "Ramnagar",
        "id": 133701,
        "latitude": "27.16371000",
        "longitude": "84.32342000"
      },
      {
        "name": "Raxaul",
        "id": 133621,
        "latitude": "26.97982000",
        "longitude": "84.85065000"
      },
      {
        "name": "Revelganj",
        "id": 133632,
        "latitude": "25.78976000",
        "longitude": "84.63596000"
      },
      {
        "name": "Rohtas",
        "id": 133648,
        "latitude": "24.97941000",
        "longitude": "84.02774000"
      },
      {
        "name": "Rusera",
        "id": 133656,
        "latitude": "25.75355000",
        "longitude": "86.02597000"
      },
      {
        "name": "Sagauli",
        "id": 133748,
        "latitude": "26.76390000",
        "longitude": "84.74341000"
      },
      {
        "name": "Saharsa",
        "id": 133749,
        "latitude": "25.87498000",
        "longitude": "86.59611000"
      },
      {
        "name": "Samastipur",
        "id": 133767,
        "latitude": "25.75000000",
        "longitude": "85.91667000"
      },
      {
        "name": "Saran",
        "id": 134076,
        "latitude": "25.91667000",
        "longitude": "84.75000000"
      },
      {
        "name": "Shahbazpur",
        "id": 133852,
        "latitude": "26.30511000",
        "longitude": "87.28865000"
      },
      {
        "name": "Shahpur",
        "id": 133902,
        "latitude": "25.60293000",
        "longitude": "84.40412000"
      },
      {
        "name": "Sheikhpura",
        "id": 133858,
        "latitude": "25.13073000",
        "longitude": "85.78176000"
      },
      {
        "name": "Sheohar",
        "id": 133860,
        "latitude": "26.50000000",
        "longitude": "85.30000000"
      },
      {
        "name": "Sherghati",
        "id": 133863,
        "latitude": "24.55950000",
        "longitude": "84.79162000"
      },
      {
        "name": "Silao",
        "id": 133933,
        "latitude": "25.08358000",
        "longitude": "85.42804000"
      },
      {
        "name": "Sitamarhi",
        "id": 134089,
        "latitude": "26.66667000",
        "longitude": "85.50000000"
      },
      {
        "name": "Siwan",
        "id": 133977,
        "latitude": "26.22096000",
        "longitude": "84.35609000"
      },
      {
        "name": "Supaul",
        "id": 134049,
        "latitude": "26.25000000",
        "longitude": "86.80000000"
      },
      {
        "name": "Teghra",
        "id": 134121,
        "latitude": "25.49043000",
        "longitude": "85.94001000"
      },
      {
        "name": "Tekari",
        "id": 134127,
        "latitude": "24.94253000",
        "longitude": "84.84265000"
      },
      {
        "name": "Thakurganj",
        "id": 134163,
        "latitude": "26.42742000",
        "longitude": "88.13112000"
      },
      {
        "name": "Vaishali",
        "id": 134314,
        "latitude": "25.75000000",
        "longitude": "85.41667000"
      },
      {
        "name": "Waris Aliganj",
        "id": 134417,
        "latitude": "25.01720000",
        "longitude": "85.64047000"
      }
    ]
  },
  {
    "state": "Chandigarh",
    "cities": [
      {
        "name": "Chandigarh",
        "id": 58190,
        "latitude": "30.73629000",
        "longitude": "76.78840000"
      }
    ]
  },
  {
    "state": "Chhattisgarh",
    "cities": [
      {
        "name": "Akaltara",
        "id": 57619,
        "latitude": "22.02463000",
        "longitude": "82.42641000"
      },
      {
        "name": "Ambagarh Chauki",
        "id": 57672,
        "latitude": "20.77644000",
        "longitude": "80.74608000"
      },
      {
        "name": "Ambikapur",
        "id": 57670,
        "latitude": "23.11892000",
        "longitude": "83.19537000"
      },
      {
        "name": "Arang",
        "id": 57728,
        "latitude": "21.19639000",
        "longitude": "81.96912000"
      },
      {
        "name": "Baikunthpur",
        "id": 57812,
        "latitude": "23.26206000",
        "longitude": "82.56051000"
      },
      {
        "name": "Balod",
        "id": 57830,
        "latitude": "20.73081000",
        "longitude": "81.20578000"
      },
      {
        "name": "Baloda",
        "id": 57831,
        "latitude": "22.13890000",
        "longitude": "82.48171000"
      },
      {
        "name": "Baloda Bazar",
        "id": 57832,
        "latitude": "21.65678000",
        "longitude": "82.16062000"
      },
      {
        "name": "Basna",
        "id": 57898,
        "latitude": "21.27885000",
        "longitude": "82.82670000"
      },
      {
        "name": "Bastar",
        "id": 57900,
        "latitude": "19.26794000",
        "longitude": "81.73828000"
      },
      {
        "name": "Bemetara",
        "id": 57931,
        "latitude": "21.71556000",
        "longitude": "81.53423000"
      },
      {
        "name": "Bhanpuri",
        "id": 58013,
        "latitude": "21.09190000",
        "longitude": "80.93218000"
      },
      {
        "name": "Bhatapara",
        "id": 58015,
        "latitude": "21.73500000",
        "longitude": "81.94711000"
      },
      {
        "name": "Bhatgaon",
        "id": 57969,
        "latitude": "21.15000000",
        "longitude": "81.70000000"
      },
      {
        "name": "Bhilai",
        "id": 57981,
        "latitude": "21.20919000",
        "longitude": "81.42850000"
      },
      {
        "name": "Bijapur",
        "id": 58032,
        "latitude": "18.84322000",
        "longitude": "80.77610000"
      },
      {
        "name": "Bilaspur",
        "id": 58055,
        "latitude": "22.38333000",
        "longitude": "82.13333000"
      },
      {
        "name": "Champa",
        "id": 131593,
        "latitude": "22.03532000",
        "longitude": "82.64234000"
      },
      {
        "name": "Chhuikhadan",
        "id": 131538,
        "latitude": "21.52316000",
        "longitude": "80.99788000"
      },
      {
        "name": "Dantewada",
        "id": 153519,
        "latitude": "18.89984800",
        "longitude": "81.33867520"
      },
      {
        "name": "Deori",
        "id": 131690,
        "latitude": "21.45000000",
        "longitude": "82.61667000"
      },
      {
        "name": "Dhamtari",
        "id": 131712,
        "latitude": "20.70718000",
        "longitude": "81.54874000"
      },
      {
        "name": "Dongargaon",
        "id": 131787,
        "latitude": "20.97172000",
        "longitude": "80.85077000"
      },
      {
        "name": "Dongargarh",
        "id": 131788,
        "latitude": "21.18893000",
        "longitude": "80.75459000"
      },
      {
        "name": "Durg",
        "id": 131801,
        "latitude": "21.15000000",
        "longitude": "81.40000000"
      },
      {
        "name": "Gandai",
        "id": 131897,
        "latitude": "21.66667000",
        "longitude": "81.10013000"
      },
      {
        "name": "Gariaband",
        "id": 131926,
        "latitude": "20.63323000",
        "longitude": "82.06221000"
      },
      {
        "name": "Gaurela",
        "id": 131927,
        "latitude": "22.75449000",
        "longitude": "81.90107000"
      },
      {
        "name": "Gharghoda",
        "id": 131938,
        "latitude": "22.17427000",
        "longitude": "83.35170000"
      },
      {
        "name": "Gidam",
        "id": 132048,
        "latitude": "18.97431000",
        "longitude": "81.39894000"
      },
      {
        "name": "Jagdalpur",
        "id": 132186,
        "latitude": "19.08136000",
        "longitude": "82.02131000"
      },
      {
        "name": "Janjgir",
        "id": 132312,
        "latitude": "22.00922000",
        "longitude": "82.57780000"
      },
      {
        "name": "Janjgir-Champa",
        "id": 132240,
        "latitude": "21.90000000",
        "longitude": "82.70000000"
      },
      {
        "name": "Jashpur",
        "id": 132244,
        "latitude": "22.78495000",
        "longitude": "83.84573000"
      },
      {
        "name": "Jashpurnagar",
        "id": 132245,
        "latitude": "22.88783000",
        "longitude": "84.13864000"
      },
      {
        "name": "Junagarh",
        "id": 132318,
        "latitude": "19.85993000",
        "longitude": "82.93385000"
      },
      {
        "name": "Kabeerdham",
        "id": 132319,
        "latitude": "22.10000000",
        "longitude": "81.20000000"
      },
      {
        "name": "Kanker",
        "id": 132704,
        "latitude": "20.27193000",
        "longitude": "81.49177000"
      },
      {
        "name": "Katghora",
        "id": 132421,
        "latitude": "22.50247000",
        "longitude": "82.54279000"
      },
      {
        "name": "Kawardha",
        "id": 132433,
        "latitude": "22.00853000",
        "longitude": "81.23148000"
      },
      {
        "name": "Khairagarh",
        "id": 132456,
        "latitude": "21.41859000",
        "longitude": "80.97942000"
      },
      {
        "name": "Khamharia",
        "id": 132463,
        "latitude": "20.97600000",
        "longitude": "82.25116000"
      },
      {
        "name": "Kharod",
        "id": 132480,
        "latitude": "21.74420000",
        "longitude": "82.57880000"
      },
      {
        "name": "Kharsia",
        "id": 132481,
        "latitude": "21.98953000",
        "longitude": "83.10476000"
      },
      {
        "name": "Kirandul",
        "id": 132525,
        "latitude": "18.63649000",
        "longitude": "81.25827000"
      },
      {
        "name": "Kondagaon",
        "id": 132565,
        "latitude": "19.59083000",
        "longitude": "81.66400000"
      },
      {
        "name": "Korba",
        "id": 132581,
        "latitude": "22.50000000",
        "longitude": "82.60000000"
      },
      {
        "name": "Koria",
        "id": 132583,
        "latitude": "23.48326000",
        "longitude": "82.15037000"
      },
      {
        "name": "Kota",
        "id": 132612,
        "latitude": "22.29507000",
        "longitude": "82.02366000"
      },
      {
        "name": "Kotaparh",
        "id": 132596,
        "latitude": "19.14256000",
        "longitude": "82.32536000"
      },
      {
        "name": "Kumhari",
        "id": 132641,
        "latitude": "21.26667000",
        "longitude": "81.51667000"
      },
      {
        "name": "Kurud",
        "id": 132661,
        "latitude": "20.83073000",
        "longitude": "81.72212000"
      },
      {
        "name": "Lormi",
        "id": 132777,
        "latitude": "22.27434000",
        "longitude": "81.70181000"
      },
      {
        "name": "Mahasamund",
        "id": 132827,
        "latitude": "21.20000000",
        "longitude": "82.50000000"
      },
      {
        "name": "Mungeli",
        "id": 133031,
        "latitude": "22.06566000",
        "longitude": "81.68543000"
      },
      {
        "name": "Narayanpur",
        "id": 133163,
        "latitude": "19.60426000",
        "longitude": "81.08119000"
      },
      {
        "name": "Narharpur",
        "id": 133168,
        "latitude": "20.44892000",
        "longitude": "81.62004000"
      },
      {
        "name": "Pandaria",
        "id": 133346,
        "latitude": "22.22495000",
        "longitude": "81.40994000"
      },
      {
        "name": "Pandatarai",
        "id": 133540,
        "latitude": "22.18714000",
        "longitude": "81.32815000"
      },
      {
        "name": "Pasan",
        "id": 133375,
        "latitude": "22.84412000",
        "longitude": "82.19823000"
      },
      {
        "name": "Patan",
        "id": 133552,
        "latitude": "21.03333000",
        "longitude": "81.53333000"
      },
      {
        "name": "Pathalgaon",
        "id": 133379,
        "latitude": "22.55656000",
        "longitude": "83.46355000"
      },
      {
        "name": "Pendra",
        "id": 133405,
        "latitude": "22.77548000",
        "longitude": "81.95968000"
      },
      {
        "name": "Pithora",
        "id": 133463,
        "latitude": "21.25021000",
        "longitude": "82.51707000"
      },
      {
        "name": "Raigarh",
        "id": 133587,
        "latitude": "22.08582000",
        "longitude": "83.30603000"
      },
      {
        "name": "Raipur",
        "id": 133590,
        "latitude": "21.25621000",
        "longitude": "81.69022000"
      },
      {
        "name": "Raj Nandgaon",
        "id": 133668,
        "latitude": "21.16667000",
        "longitude": "81.00000000"
      },
      {
        "name": "Ramanuj Ganj",
        "id": 133711,
        "latitude": "23.80637000",
        "longitude": "83.69981000"
      },
      {
        "name": "Ratanpur",
        "id": 133616,
        "latitude": "22.28660000",
        "longitude": "82.16823000"
      },
      {
        "name": "Sakti",
        "id": 133761,
        "latitude": "22.02662000",
        "longitude": "82.96091000"
      },
      {
        "name": "Saraipali",
        "id": 133801,
        "latitude": "21.31530000",
        "longitude": "83.00629000"
      },
      {
        "name": "Sarangarh",
        "id": 134077,
        "latitude": "21.58614000",
        "longitude": "83.07850000"
      },
      {
        "name": "Seorinarayan",
        "id": 133845,
        "latitude": "21.72055000",
        "longitude": "82.59344000"
      },
      {
        "name": "Simga",
        "id": 133940,
        "latitude": "21.62810000",
        "longitude": "81.70376000"
      },
      {
        "name": "Surguja",
        "id": 134051,
        "latitude": "22.89624000",
        "longitude": "83.09631000"
      },
      {
        "name": "Takhatpur",
        "id": 134099,
        "latitude": "22.12915000",
        "longitude": "81.86959000"
      },
      {
        "name": "Umarkot",
        "id": 134273,
        "latitude": "19.66529000",
        "longitude": "82.20629000"
      },
      {
        "name": "Uttar Bastar Kanker",
        "id": 134299,
        "latitude": "20.20000000",
        "longitude": "81.10000000"
      }
    ]
  },
  {
    "state": "Dadra and Nagar Haveli and Daman and Diu",
    "cities": [
      {
        "name": "Amli",
        "id": 134459,
        "latitude": "20.28333000",
        "longitude": "73.01667000"
      },
      {
        "name": "Dadra",
        "id": 131639,
        "latitude": "20.32504000",
        "longitude": "72.96618000"
      },
      {
        "name": "Dadra & Nagar Haveli",
        "id": 131640,
        "latitude": "20.20651000",
        "longitude": "73.00811000"
      },
      {
        "name": "Daman",
        "id": 131649,
        "latitude": "20.41431000",
        "longitude": "72.83236000"
      },
      {
        "name": "Diu",
        "id": 131779,
        "latitude": "20.72081000",
        "longitude": "70.93989000"
      },
      {
        "name": "Silvassa",
        "id": 133937,
        "latitude": "20.27386000",
        "longitude": "72.99673000"
      }
    ]
  },
  {
    "state": "Delhi",
    "cities": [
      {
        "name": "Alipur",
        "id": 57655,
        "latitude": "28.79862000",
        "longitude": "77.13314000"
      },
      {
        "name": "Bawana",
        "id": 57909,
        "latitude": "28.79820000",
        "longitude": "77.03431000"
      },
      {
        "name": "Central Delhi",
        "id": 58171,
        "latitude": "28.64857000",
        "longitude": "77.21895000"
      },
      {
        "name": "Delhi",
        "id": 131679,
        "latitude": "28.65195000",
        "longitude": "77.23149000"
      },
      {
        "name": "Deoli",
        "id": 131687,
        "latitude": "28.50254000",
        "longitude": "77.23117000"
      },
      {
        "name": "East Delhi",
        "id": 131821,
        "latitude": "28.66242000",
        "longitude": "77.29122000"
      },
      {
        "name": "Karol Bagh",
        "id": 132406,
        "latitude": "28.65136000",
        "longitude": "77.19072000"
      },
      {
        "name": "Najafgarh",
        "id": 133126,
        "latitude": "28.60922000",
        "longitude": "76.97982000"
      },
      {
        "name": "Nangloi Jat",
        "id": 133269,
        "latitude": "28.67957000",
        "longitude": "77.06799000"
      },
      {
        "name": "Narela",
        "id": 133165,
        "latitude": "28.85267000",
        "longitude": "77.09288000"
      },
      {
        "name": "New Delhi",
        "id": 133210,
        "latitude": "28.63576000",
        "longitude": "77.22445000"
      },
      {
        "name": "North Delhi",
        "id": 133234,
        "latitude": "28.66920000",
        "longitude": "77.22273000"
      },
      {
        "name": "North East Delhi",
        "id": 133236,
        "latitude": "28.68690000",
        "longitude": "77.30195000"
      },
      {
        "name": "North West Delhi",
        "id": 133243,
        "latitude": "28.70113000",
        "longitude": "77.10154000"
      },
      {
        "name": "Pitampura",
        "id": 133461,
        "latitude": "28.68964000",
        "longitude": "77.13126000"
      },
      {
        "name": "Rohini",
        "id": 133645,
        "latitude": "28.74322000",
        "longitude": "77.06778000"
      },
      {
        "name": "South Delhi",
        "id": 134007,
        "latitude": "28.53009000",
        "longitude": "77.25174000"
      },
      {
        "name": "South West Delhi",
        "id": 134012,
        "latitude": "28.58060000",
        "longitude": "77.06720000"
      },
      {
        "name": "West Delhi",
        "id": 134404,
        "latitude": "28.65655000",
        "longitude": "77.10068000"
      }
    ]
  },
  {
    "state": "Goa",
    "cities": [
      {
        "name": "Aldona",
        "id": 57638,
        "latitude": "15.59337000",
        "longitude": "73.87482000"
      },
      {
        "name": "Arambol",
        "id": 57727,
        "latitude": "15.68681000",
        "longitude": "73.70449000"
      },
      {
        "name": "Baga",
        "id": 57795,
        "latitude": "15.56517000",
        "longitude": "73.75517000"
      },
      {
        "name": "Bambolim",
        "id": 57836,
        "latitude": "15.46361000",
        "longitude": "73.85310000"
      },
      {
        "name": "Bandora",
        "id": 57845,
        "latitude": "15.40823000",
        "longitude": "73.98129000"
      },
      {
        "name": "Benaulim",
        "id": 57932,
        "latitude": "15.26435000",
        "longitude": "73.92812000"
      },
      {
        "name": "Calangute",
        "id": 58165,
        "latitude": "15.54390000",
        "longitude": "73.75530000"
      },
      {
        "name": "Candolim",
        "id": 58167,
        "latitude": "15.51807000",
        "longitude": "73.76259000"
      },
      {
        "name": "Carapur",
        "id": 58169,
        "latitude": "15.56588000",
        "longitude": "73.98713000"
      },
      {
        "name": "Cavelossim",
        "id": 58170,
        "latitude": "15.17255000",
        "longitude": "73.94194000"
      },
      {
        "name": "Chicalim",
        "id": 131542,
        "latitude": "15.39835000",
        "longitude": "73.84216000"
      },
      {
        "name": "Chinchinim",
        "id": 131559,
        "latitude": "15.21447000",
        "longitude": "73.97555000"
      },
      {
        "name": "Colovale",
        "id": 131622,
        "latitude": "15.63522000",
        "longitude": "73.82426000"
      },
      {
        "name": "Colva",
        "id": 131623,
        "latitude": "15.27976000",
        "longitude": "73.92285000"
      },
      {
        "name": "Cortalim",
        "id": 131625,
        "latitude": "15.40247000",
        "longitude": "73.90881000"
      },
      {
        "name": "Cuncolim",
        "id": 131630,
        "latitude": "15.17730000",
        "longitude": "73.99392000"
      },
      {
        "name": "Curchorem",
        "id": 131631,
        "latitude": "15.26349000",
        "longitude": "74.10875000"
      },
      {
        "name": "Curti",
        "id": 131632,
        "latitude": "15.41667000",
        "longitude": "74.01667000"
      },
      {
        "name": "Davorlim",
        "id": 131672,
        "latitude": "15.27221000",
        "longitude": "73.99242000"
      },
      {
        "name": "Dicholi",
        "id": 131764,
        "latitude": "15.59319000",
        "longitude": "73.94571000"
      },
      {
        "name": "Goa Velha",
        "id": 131960,
        "latitude": "15.44384000",
        "longitude": "73.88572000"
      },
      {
        "name": "Guirim",
        "id": 132015,
        "latitude": "15.57552000",
        "longitude": "73.80722000"
      },
      {
        "name": "Jua",
        "id": 132297,
        "latitude": "15.53070000",
        "longitude": "73.95047000"
      },
      {
        "name": "Kankon",
        "id": 132705,
        "latitude": "15.02698000",
        "longitude": "74.04617000"
      },
      {
        "name": "Madgaon",
        "id": 132811,
        "latitude": "15.27501000",
        "longitude": "73.95786000"
      },
      {
        "name": "Mapuca",
        "id": 133086,
        "latitude": "15.59154000",
        "longitude": "73.80898000"
      },
      {
        "name": "Morjim",
        "id": 132997,
        "latitude": "15.63097000",
        "longitude": "73.73903000"
      },
      {
        "name": "Mormugao",
        "id": 132998,
        "latitude": "15.38914000",
        "longitude": "73.81491000"
      },
      {
        "name": "Navelim",
        "id": 133185,
        "latitude": "15.53333000",
        "longitude": "73.98333000"
      },
      {
        "name": "North Goa",
        "id": 133238,
        "latitude": "15.53397000",
        "longitude": "73.96408000"
      },
      {
        "name": "Palle",
        "id": 133330,
        "latitude": "15.46667000",
        "longitude": "74.08333000"
      },
      {
        "name": "Panaji",
        "id": 133342,
        "latitude": "15.49574000",
        "longitude": "73.82624000"
      },
      {
        "name": "Pernem",
        "id": 133422,
        "latitude": "15.72300000",
        "longitude": "73.79511000"
      },
      {
        "name": "Ponda",
        "id": 133471,
        "latitude": "15.40341000",
        "longitude": "74.01519000"
      },
      {
        "name": "Quepem",
        "id": 133572,
        "latitude": "15.21280000",
        "longitude": "74.07720000"
      },
      {
        "name": "Queula",
        "id": 133573,
        "latitude": "15.39011000",
        "longitude": "73.98557000"
      },
      {
        "name": "Raia",
        "id": 133585,
        "latitude": "15.30499000",
        "longitude": "73.97096000"
      },
      {
        "name": "Saligao",
        "id": 133764,
        "latitude": "15.55359000",
        "longitude": "73.79036000"
      },
      {
        "name": "Sancoale",
        "id": 133777,
        "latitude": "15.37794000",
        "longitude": "73.90352000"
      },
      {
        "name": "Sanguem",
        "id": 133786,
        "latitude": "15.22901000",
        "longitude": "74.15149000"
      },
      {
        "name": "Sanquelim",
        "id": 133791,
        "latitude": "15.56422000",
        "longitude": "74.00799000"
      },
      {
        "name": "Sanvordem",
        "id": 133795,
        "latitude": "15.26269000",
        "longitude": "74.11965000"
      },
      {
        "name": "Serula",
        "id": 133850,
        "latitude": "15.54774000",
        "longitude": "73.84329000"
      },
      {
        "name": "Solim",
        "id": 133987,
        "latitude": "15.61521000",
        "longitude": "73.76740000"
      },
      {
        "name": "South Goa",
        "id": 134010,
        "latitude": "15.20425000",
        "longitude": "74.16733000"
      },
      {
        "name": "Taleigao",
        "id": 134101,
        "latitude": "15.46915000",
        "longitude": "73.83285000"
      },
      {
        "name": "Vagator",
        "id": 134311,
        "latitude": "15.59766000",
        "longitude": "73.74496000"
      },
      {
        "name": "Valpoy",
        "id": 134321,
        "latitude": "15.53239000",
        "longitude": "74.13671000"
      },
      {
        "name": "Varca",
        "id": 134329,
        "latitude": "15.23237000",
        "longitude": "73.94311000"
      },
      {
        "name": "Vasco da Gama",
        "id": 134333,
        "latitude": "15.39585000",
        "longitude": "73.81568000"
      }
    ]
  },
  {
    "state": "Gujarat",
    "cities": [
      {
        "name": "Abrama",
        "id": 57588,
        "latitude": "20.85865000",
        "longitude": "72.90648000"
      },
      {
        "name": "Adalaj",
        "id": 57591,
        "latitude": "23.16453000",
        "longitude": "72.58107000"
      },
      {
        "name": "Agol",
        "id": 147572,
        "latitude": "23.15000000",
        "longitude": "72.26666667"
      },
      {
        "name": "Ahmedabad",
        "id": 57606,
        "latitude": "23.02579000",
        "longitude": "72.58727000"
      },
      {
        "name": "Ahwa",
        "id": 57608,
        "latitude": "20.75718000",
        "longitude": "73.68626000"
      },
      {
        "name": "Akrund",
        "id": 147573,
        "latitude": "23.28333333",
        "longitude": "73.11666667"
      },
      {
        "name": "Amod",
        "id": 57683,
        "latitude": "21.99317000",
        "longitude": "72.87047000"
      },
      {
        "name": "Amreli",
        "id": 57685,
        "latitude": "21.50789000",
        "longitude": "71.18323000"
      },
      {
        "name": "Amroli",
        "id": 57688,
        "latitude": "21.25084000",
        "longitude": "72.83878000"
      },
      {
        "name": "Anand",
        "id": 57695,
        "latitude": "22.40000000",
        "longitude": "72.75000000"
      },
      {
        "name": "Anjar",
        "id": 57709,
        "latitude": "23.11316000",
        "longitude": "70.02671000"
      },
      {
        "name": "Ankleshwar",
        "id": 57710,
        "latitude": "21.63236000",
        "longitude": "72.99001000"
      },
      {
        "name": "Babra",
        "id": 58104,
        "latitude": "21.84577000",
        "longitude": "71.30544000"
      },
      {
        "name": "Bagasara",
        "id": 142125,
        "latitude": "21.48333333",
        "longitude": "70.95000000"
      },
      {
        "name": "Bagasra",
        "id": 57799,
        "latitude": "21.48719000",
        "longitude": "70.95516000"
      },
      {
        "name": "Bakharla",
        "id": 147575,
        "latitude": "21.73151700",
        "longitude": "69.63529600"
      },
      {
        "name": "Balagam",
        "id": 147576,
        "latitude": "21.36666667",
        "longitude": "70.10000000"
      },
      {
        "name": "Balasinor",
        "id": 147577,
        "latitude": "22.95589100",
        "longitude": "73.33649900"
      },
      {
        "name": "Balisana",
        "id": 147578,
        "latitude": "23.81643600",
        "longitude": "72.25753600"
      },
      {
        "name": "Bamanbore",
        "id": 147579,
        "latitude": "22.41666667",
        "longitude": "71.01666667"
      },
      {
        "name": "Banas Kantha",
        "id": 57858,
        "latitude": "24.25000000",
        "longitude": "72.50000000"
      },
      {
        "name": "Bandia",
        "id": 147580,
        "latitude": "23.39604000",
        "longitude": "69.01155000"
      },
      {
        "name": "Bantva",
        "id": 58135,
        "latitude": "21.48815000",
        "longitude": "70.07576000"
      },
      {
        "name": "Bardoli",
        "id": 58140,
        "latitude": "21.12297000",
        "longitude": "73.11151000"
      },
      {
        "name": "Bavla",
        "id": 153924,
        "latitude": "22.83672406",
        "longitude": "72.36277938"
      },
      {
        "name": "Bedi",
        "id": 57911,
        "latitude": "22.50143000",
        "longitude": "70.04363000"
      },
      {
        "name": "Bhachau",
        "id": 57948,
        "latitude": "23.29858000",
        "longitude": "70.34279000"
      },
      {
        "name": "Bhadran",
        "id": 147581,
        "latitude": "22.35930000",
        "longitude": "72.90050000"
      },
      {
        "name": "Bhandu",
        "id": 147582,
        "latitude": "23.70000000",
        "longitude": "72.36666667"
      },
      {
        "name": "Bhanvad",
        "id": 58014,
        "latitude": "21.93053000",
        "longitude": "69.78081000"
      },
      {
        "name": "Bharuch",
        "id": 57967,
        "latitude": "21.69482000",
        "longitude": "72.98050000"
      },
      {
        "name": "Bhatha",
        "id": 147583,
        "latitude": "21.18333333",
        "longitude": "72.76666667"
      },
      {
        "name": "Bhavnagar",
        "id": 57972,
        "latitude": "21.76287000",
        "longitude": "72.15331000"
      },
      {
        "name": "Bhayavadar",
        "id": 58017,
        "latitude": "21.85523000",
        "longitude": "70.24791000"
      },
      {
        "name": "Bhildi",
        "id": 147584,
        "latitude": "24.18333333",
        "longitude": "72.03333333"
      },
      {
        "name": "Bhojpur Dharampur",
        "id": 147585,
        "latitude": "23.25000000",
        "longitude": "69.67000000"
      },
      {
        "name": "Bhuj",
        "id": 58002,
        "latitude": "23.25397000",
        "longitude": "69.66928000"
      },
      {
        "name": "Bilimora",
        "id": 58045,
        "latitude": "20.76957000",
        "longitude": "72.96134000"
      },
      {
        "name": "Bilkha",
        "id": 58046,
        "latitude": "21.44150000",
        "longitude": "70.60063000"
      },
      {
        "name": "Borsad",
        "id": 58084,
        "latitude": "22.40788000",
        "longitude": "72.89817000"
      },
      {
        "name": "Botad",
        "id": 58085,
        "latitude": "22.16917000",
        "longitude": "71.66671000"
      },
      {
        "name": "Chaklasi",
        "id": 58174,
        "latitude": "22.65320000",
        "longitude": "72.94497000"
      },
      {
        "name": "Chalala",
        "id": 58180,
        "latitude": "21.41073000",
        "longitude": "71.16621000"
      },
      {
        "name": "Chaloda",
        "id": 147586,
        "latitude": "22.80000000",
        "longitude": "72.45000000"
      },
      {
        "name": "Champaner",
        "id": 147587,
        "latitude": "22.48590000",
        "longitude": "73.53710000"
      },
      {
        "name": "Chanasma",
        "id": 131595,
        "latitude": "23.71472000",
        "longitude": "72.11279000"
      },
      {
        "name": "Chhala",
        "id": 131529,
        "latitude": "23.30779000",
        "longitude": "72.77404000"
      },
      {
        "name": "Chhota Udepur",
        "id": 131535,
        "latitude": "22.30401000",
        "longitude": "74.01580000"
      },
      {
        "name": "Chikhli",
        "id": 131548,
        "latitude": "20.75751000",
        "longitude": "73.06268000"
      },
      {
        "name": "Chotila",
        "id": 131582,
        "latitude": "22.42347000",
        "longitude": "71.19641000"
      },
      {
        "name": "Chuda",
        "id": 147588,
        "latitude": "22.48333333",
        "longitude": "71.68333333"
      },
      {
        "name": "Dabhoda",
        "id": 147589,
        "latitude": "23.16666667",
        "longitude": "72.73333333"
      },
      {
        "name": "Dabhoi",
        "id": 131635,
        "latitude": "22.18333000",
        "longitude": "73.43333000"
      },
      {
        "name": "Dahegam",
        "id": 131642,
        "latitude": "23.16903000",
        "longitude": "72.82161000"
      },
      {
        "name": "Dahod",
        "id": 142126,
        "latitude": "22.52000000",
        "longitude": "74.15000000"
      },
      {
        "name": "Dakor",
        "id": 131808,
        "latitude": "22.75268000",
        "longitude": "73.14967000"
      },
      {
        "name": "Damnagar",
        "id": 131809,
        "latitude": "21.69232000",
        "longitude": "71.51747000"
      },
      {
        "name": "Dandi",
        "id": 147590,
        "latitude": "21.32988000",
        "longitude": "72.62484000"
      },
      {
        "name": "Dangs (India)",
        "id": 142127,
        "latitude": "20.75000000",
        "longitude": "73.75000000"
      },
      {
        "name": "Danta",
        "id": 147591,
        "latitude": "24.18861111",
        "longitude": "72.76583333"
      },
      {
        "name": "Dayapar",
        "id": 131673,
        "latitude": "23.63371000",
        "longitude": "68.90192000"
      },
      {
        "name": "Delvada",
        "id": 131680,
        "latitude": "20.77544000",
        "longitude": "71.04646000"
      },
      {
        "name": "Delwada",
        "id": 142128,
        "latitude": "20.78330000",
        "longitude": "71.05000000"
      },
      {
        "name": "Detroj",
        "id": 147592,
        "latitude": "23.33333333",
        "longitude": "72.18333333"
      },
      {
        "name": "Devbhumi Dwarka",
        "id": 131704,
        "latitude": "22.20253000",
        "longitude": "69.65498000"
      },
      {
        "name": "Devgadh Bariya",
        "id": 131705,
        "latitude": "22.70517000",
        "longitude": "73.90882000"
      },
      {
        "name": "Dhandhuka",
        "id": 131716,
        "latitude": "22.38185000",
        "longitude": "71.98664000"
      },
      {
        "name": "Dhanera",
        "id": 131717,
        "latitude": "24.50967000",
        "longitude": "72.02343000"
      },
      {
        "name": "Dhansura",
        "id": 147593,
        "latitude": "23.35000000",
        "longitude": "73.20000000"
      },
      {
        "name": "Dharampur",
        "id": 131719,
        "latitude": "20.53693000",
        "longitude": "73.17368000"
      },
      {
        "name": "Dharasana",
        "id": 147594,
        "latitude": "20.68333333",
        "longitude": "72.91666667"
      },
      {
        "name": "Dhari",
        "id": 131755,
        "latitude": "21.32855000",
        "longitude": "71.02645000"
      },
      {
        "name": "Dhasa",
        "id": 147595,
        "latitude": "21.80000000",
        "longitude": "71.51666667"
      },
      {
        "name": "Dhola",
        "id": 131738,
        "latitude": "21.88129000",
        "longitude": "71.77269000"
      },
      {
        "name": "Dholera",
        "id": 147596,
        "latitude": "22.24800000",
        "longitude": "72.19500000"
      },
      {
        "name": "Dholka",
        "id": 131739,
        "latitude": "22.72732000",
        "longitude": "72.44128000"
      },
      {
        "name": "Dhoraji",
        "id": 131741,
        "latitude": "21.73359000",
        "longitude": "70.45004000"
      },
      {
        "name": "Dhrangadhra",
        "id": 131743,
        "latitude": "22.99167000",
        "longitude": "71.46793000"
      },
      {
        "name": "Dhrol",
        "id": 131742,
        "latitude": "22.56700000",
        "longitude": "70.41769000"
      },
      {
        "name": "Dhuwaran",
        "id": 131747,
        "latitude": "22.23779000",
        "longitude": "72.75910000"
      },
      {
        "name": "Disa",
        "id": 131817,
        "latitude": "24.25612000",
        "longitude": "72.17928000"
      },
      {
        "name": "Dohad",
        "id": 131782,
        "latitude": "22.90000000",
        "longitude": "74.00000000"
      },
      {
        "name": "Dumkhal",
        "id": 147597,
        "latitude": "21.73960000",
        "longitude": "73.84490000"
      },
      {
        "name": "Dungarpur",
        "id": 131800,
        "latitude": "21.28777000",
        "longitude": "71.75560000"
      },
      {
        "name": "Dwarka",
        "id": 131803,
        "latitude": "22.23944000",
        "longitude": "68.96778000"
      },
      {
        "name": "Gadhada",
        "id": 131888,
        "latitude": "21.96957000",
        "longitude": "71.57828000"
      },
      {
        "name": "Gandevi",
        "id": 131899,
        "latitude": "20.81214000",
        "longitude": "72.99811000"
      },
      {
        "name": "Gandhidham",
        "id": 132046,
        "latitude": "23.08333000",
        "longitude": "70.13333000"
      },
      {
        "name": "Gandhinagar",
        "id": 131900,
        "latitude": "23.21667000",
        "longitude": "72.68333000"
      },
      {
        "name": "Gariadhar",
        "id": 131925,
        "latitude": "21.53889000",
        "longitude": "71.57737000"
      },
      {
        "name": "Ghodasar",
        "id": 147598,
        "latitude": "24.45000000",
        "longitude": "71.85000000"
      },
      {
        "name": "Ghogha",
        "id": 131944,
        "latitude": "21.68813000",
        "longitude": "72.27630000"
      },
      {
        "name": "Gir Somnath",
        "id": 131958,
        "latitude": "20.91287000",
        "longitude": "70.36710000"
      },
      {
        "name": "Godhra",
        "id": 131964,
        "latitude": "22.77547000",
        "longitude": "73.61488000"
      },
      {
        "name": "Gondal",
        "id": 131982,
        "latitude": "21.96074000",
        "longitude": "70.80255000"
      },
      {
        "name": "Gorwa",
        "id": 147599,
        "latitude": "22.33010000",
        "longitude": "73.16110000"
      },
      {
        "name": "Halenda",
        "id": 147600,
        "latitude": "22.08818500",
        "longitude": "71.05171000"
      },
      {
        "name": "Halol",
        "id": 132139,
        "latitude": "22.50321000",
        "longitude": "73.47242000"
      },
      {
        "name": "Halvad",
        "id": 132060,
        "latitude": "23.01516000",
        "longitude": "71.18029000"
      },
      {
        "name": "Hansot",
        "id": 132065,
        "latitude": "21.58496000",
        "longitude": "72.80764000"
      },
      {
        "name": "Harij",
        "id": 132143,
        "latitude": "23.69356000",
        "longitude": "71.90700000"
      },
      {
        "name": "Harsol",
        "id": 147601,
        "latitude": "23.36000000",
        "longitude": "73.02000000"
      },
      {
        "name": "Hathuran",
        "id": 147602,
        "latitude": "21.50000000",
        "longitude": "72.97000000"
      },
      {
        "name": "Himatnagar",
        "id": 132096,
        "latitude": "23.59893000",
        "longitude": "72.96602000"
      },
      {
        "name": "Idar",
        "id": 147603,
        "latitude": "23.83000000",
        "longitude": "73.00000000"
      },
      {
        "name": "Jakhau",
        "id": 147604,
        "latitude": "23.21861111",
        "longitude": "68.71694444"
      },
      {
        "name": "Jalalpore",
        "id": 142129,
        "latitude": "20.94910000",
        "longitude": "72.91360000"
      },
      {
        "name": "Jalalpur",
        "id": 132219,
        "latitude": "20.94896000",
        "longitude": "72.89829000"
      },
      {
        "name": "Jalia",
        "id": 147605,
        "latitude": "21.80000000",
        "longitude": "70.25000000"
      },
      {
        "name": "Jambuda",
        "id": 147606,
        "latitude": "22.51666667",
        "longitude": "70.21666667"
      },
      {
        "name": "Jambusar",
        "id": 132226,
        "latitude": "22.05236000",
        "longitude": "72.80074000"
      },
      {
        "name": "Jamnagar",
        "id": 132230,
        "latitude": "22.47292000",
        "longitude": "70.06673000"
      },
      {
        "name": "Jarod",
        "id": 147607,
        "latitude": "22.43300000",
        "longitude": "73.33300000"
      },
      {
        "name": "Jasdan",
        "id": 132243,
        "latitude": "22.03709000",
        "longitude": "71.20794000"
      },
      {
        "name": "Jetalpur",
        "id": 147608,
        "latitude": "22.88333333",
        "longitude": "72.60000000"
      },
      {
        "name": "Jetalsar",
        "id": 132261,
        "latitude": "21.70891000",
        "longitude": "70.57695000"
      },
      {
        "name": "Jetpur",
        "id": 132262,
        "latitude": "21.75482000",
        "longitude": "70.62347000"
      },
      {
        "name": "Jetpur (Navagadh)",
        "id": 147609,
        "latitude": "21.75482000",
        "longitude": "70.62347000"
      },
      {
        "name": "Jhalod",
        "id": 147610,
        "latitude": "23.10027778",
        "longitude": "74.15611111"
      },
      {
        "name": "Jhulasan",
        "id": 132272,
        "latitude": "23.32860000",
        "longitude": "72.47314000"
      },
      {
        "name": "Jodhpur",
        "id": 132285,
        "latitude": "21.90174000",
        "longitude": "70.03270000"
      },
      {
        "name": "Jodhpur (Ahmedabad)",
        "id": 147611,
        "latitude": "21.88000000",
        "longitude": "70.03000000"
      },
      {
        "name": "Jodia",
        "id": 142130,
        "latitude": "22.71667000",
        "longitude": "70.28333000"
      },
      {
        "name": "Jodiya Bandar",
        "id": 132287,
        "latitude": "22.71667000",
        "longitude": "70.28333000"
      },
      {
        "name": "Junagadh",
        "id": 132317,
        "latitude": "21.25000000",
        "longitude": "70.33333000"
      },
      {
        "name": "Kachchh",
        "id": 132321,
        "latitude": "23.58333000",
        "longitude": "70.00000000"
      },
      {
        "name": "Kachholi",
        "id": 147612,
        "latitude": "20.83333333",
        "longitude": "72.96666667"
      },
      {
        "name": "Kadi",
        "id": 132327,
        "latitude": "23.29908000",
        "longitude": "72.33362000"
      },
      {
        "name": "Kadod",
        "id": 132329,
        "latitude": "21.21717000",
        "longitude": "73.21972000"
      },
      {
        "name": "Kalavad",
        "id": 132689,
        "latitude": "22.20789000",
        "longitude": "70.38343000"
      },
      {
        "name": "Kalol",
        "id": 132682,
        "latitude": "22.60777000",
        "longitude": "73.46272000"
      },
      {
        "name": "Kandla",
        "id": 132698,
        "latitude": "23.03333000",
        "longitude": "70.21667000"
      },
      {
        "name": "Kandla port",
        "id": 147613,
        "latitude": "23.03000000",
        "longitude": "70.22000000"
      },
      {
        "name": "Kanodar",
        "id": 132708,
        "latitude": "24.08932000",
        "longitude": "72.39354000"
      },
      {
        "name": "Kapadvanj",
        "id": 132390,
        "latitude": "23.02302000",
        "longitude": "73.07113000"
      },
      {
        "name": "Karamsad",
        "id": 132394,
        "latitude": "22.54243000",
        "longitude": "72.90392000"
      },
      {
        "name": "Kariana",
        "id": 147614,
        "latitude": "21.88333333",
        "longitude": "71.35000000"
      },
      {
        "name": "Karjan",
        "id": 147615,
        "latitude": "22.05304167",
        "longitude": "73.12351389"
      },
      {
        "name": "Kathor",
        "id": 132723,
        "latitude": "21.28854000",
        "longitude": "72.94070000"
      },
      {
        "name": "Katpur",
        "id": 132425,
        "latitude": "21.05869000",
        "longitude": "71.79457000"
      },
      {
        "name": "Kawant",
        "id": 132434,
        "latitude": "22.09282000",
        "longitude": "74.05078000"
      },
      {
        "name": "Kayavarohan",
        "id": 147616,
        "latitude": "22.06700000",
        "longitude": "73.25000000"
      },
      {
        "name": "Kerwada",
        "id": 147617,
        "latitude": "21.90000000",
        "longitude": "72.85000000"
      },
      {
        "name": "Keshod",
        "id": 132446,
        "latitude": "21.30328000",
        "longitude": "70.24861000"
      },
      {
        "name": "Khambhalia",
        "id": 142132,
        "latitude": "22.20000000",
        "longitude": "69.65000000"
      },
      {
        "name": "Khambhat",
        "id": 132462,
        "latitude": "22.31744000",
        "longitude": "72.61916000"
      },
      {
        "name": "Khavda",
        "id": 147618,
        "latitude": "23.85000000",
        "longitude": "69.72000000"
      },
      {
        "name": "Kheda",
        "id": 132488,
        "latitude": "22.75000000",
        "longitude": "72.83333000"
      },
      {
        "name": "Khedbrahma",
        "id": 132489,
        "latitude": "24.02990000",
        "longitude": "73.04632000"
      },
      {
        "name": "Khedoi",
        "id": 147619,
        "latitude": "23.05927778",
        "longitude": "69.91895556"
      },
      {
        "name": "Kherali",
        "id": 147620,
        "latitude": "22.68333333",
        "longitude": "71.60000000"
      },
      {
        "name": "Kheralu",
        "id": 132494,
        "latitude": "23.88534000",
        "longitude": "72.61869000"
      },
      {
        "name": "Kodinar",
        "id": 132547,
        "latitude": "20.79393000",
        "longitude": "70.70216000"
      },
      {
        "name": "Kosamba",
        "id": 132588,
        "latitude": "21.46202000",
        "longitude": "72.95842000"
      },